[{"name": "Attleboro District Court", "phone": "(508) 222-5900 ", "fax": "", "address": "88 North Main St., Attleboro, MA 02703", "description": "The Attleboro District Court serves Attleboro, Mansfield, North Attleboro, and Norton.", "lat": 41.946249, "lng": -71.287488}, {"name": "Ayer District Court", "phone": "(978) 772-2100", "fax": "(978) 772-5345", "address": "25 East Main St., Ayer, MA 01432", "description": "The Ayer District Court serves Ashby, Ayer, Boxborough, Dunstable, Groton, Littleton, Pepperell, Shirley, Townsend, Westford, and Devens Regional Enterprise Zone.", "lat": 42.557374, "lng": -71.583402}, {"name": "Barnstable District Court", "phone": "(508) 375-6778", "fax": "", "address": "3195 Main St., P.O. Box 398, Barnstable, MA 02630", "description": "The Barnstable District Court serves Barnstable, Yarmouth, and Sandwich.", "lat": 41.700346, "lng": -70.304021}, {"name": "Brockton District Court", "phone": "(508) 587-8000", "fax": "(508) 587-6791", "address": "215 Main St., Brockton, MA 02301", "description": "This court serves Abington, Bridgewater, Brockton, East Bridgewater, West Bridgewater, and Whitman.", "lat": 42.081684, "lng": -71.020647}, {"name": "Brookline District Court", "phone": "(617) 232-4660", "fax": "", "address": "360 Washington St., Brookline, MA 02445", "description": "The Brookline District Court serves the town of Brookline.", "lat": 42.333926, "lng": -71.121861}, {"name": "Cambridge District Court", "phone": "(781) 306-2715", "fax": "(781) 395-2035", "address": "4040 Mystic Valley Parkway, Medford, MA 02155", "description": "The Cambridge District Court serves Cambridge, Arlington, and Belmont.", "lat": 42.404818, "lng": -71.087248}, {"name": "Chelsea District Court", "phone": "(617) 660-9200", "fax": "(617) 660-9215", "address": "120 Broadway, Chelsea, MA 02150", "description": "This court serves Chelsea and Revere.", "lat": 42.388954, "lng": -71.041463}, {"name": "Chicopee District Court", "phone": "(413) 598-0099", "fax": "(413) 594-6187", "address": "30 Church St., Chicopee, MA 01020", "description": "This court serves Chicopee.", "lat": 42.157469, "lng": -72.583695}, {"name": "Clinton District Court", "phone": "(978) 368-7811", "fax": "(978) 368-7827", "address": "300 Boylston St., Clinton, MA 01510", "description": "This court serves Berlin, Bolton, Boylston, Clinton, Harvard, Lancaster, Sterling, and West Boylston.", "lat": 42.399335, "lng": -71.686802}, {"name": "Concord District Court", "phone": "(978) 369-0500", "fax": "(978) 371-2945", "address": "305 Walden St., Concord, MA 01742", "description": "This court serves Concord, Carlisle, Lincoln, Lexington, Bedford, Acton, Maynard, and Stow.", "lat": 42.453921, "lng": -71.343053}, {"name": "Dedham District Court", "phone": "(781) 329-4777", "fax": "", "address": "631 High St., Dedham, MA 02026", "description": "This court serves Dedham, Dover, Medfield, Needham, Norwood, Wellesley, and Westwood.", "lat": 42.248991, "lng": -71.175107}, {"name": "Dudley District Court", "phone": "(508) 943-7123", "fax": "", "address": "279 West Main St., Dudley, MA 01571", "description": "This court serves Charlton, Dudley, Oxford, Southbridge, Sturbridge, and Webster.", "lat": 42.034256, "lng": -71.923491}, {"name": "East Brookfield District Court", "phone": "(508) 885-6305", "fax": "(508) 885-7623", "address": "544 East Main St., East Brookfield, MA 01515", "description": "This court serves Barre, Brookfield, East Brookfield, Hardwick, Leicester, New Braintree, North Brookfield, Oakham, Paxton, Rutland, Spencer, Warren, and West Brookfield.", "lat": 42.232418, "lng": -72.030788}, {"name": "Eastern Hampshire District Court", "phone": "(413) 323-4056", "fax": "(413) 323-6803", "address": "205 State St., Route 202, PO Box 1490, Belchertown, MA 01007", "description": "This court serves Amherst, Belchertown, Granby, Hadley, Pelham, South Hadley, Ware , M.D.C. Quabbin Reservoir, and the Watershed Area.", "lat": 42.267052, "lng": -72.421042}, {"name": "Edgartown District Court", "phone": "", "fax": "", "address": "81 Main St., Edgartown, MA 02539", "description": "This court serves Edgartown, Oak Bluffs, Tisbury, West Tisbury, Chilmark, Aquinnah (formerly Gay Head), Gosnold, and Elizabeth Islands.", "lat": 41.390365, "lng": -70.514702}, {"name": "Fall River District Court", "phone": "", "fax": "", "address": "186 Main St., 5th Floor, Fall River, MA 02720", "description": "This court serves Fall River, Freetown, Somerset, Swansea, and Westport.", "lat": 41.704526, "lng": -71.155294}, {"name": "Falmouth District Court", "phone": "(508) 495-1500", "fax": "", "address": "161 Jones Rd., Falmouth, MA 02540", "description": "This court serves Bourne, Falmouth, and Mashpee. ", "lat": 41.561788, "lng": -70.613781}, {"name": "Fitchburg District Court", "phone": "(978) 345-2111", "fax": "(978) 342-2461", "address": "100 Elm St., Fitchburg, MA 01420", "description": "This court serves Fitchburg and Lunenburg.", "lat": 42.584589, "lng": -71.801701}, {"name": "Framingham District Court", "phone": "(508) 875-7461", "fax": "", "address": "600 Concord St., PO Box 1969, Framingham, MA 01701", "description": "This court serves Ashland, Framingham, Holliston, Hopkinton, Sudbury, and Wayland.", "lat": 42.293395, "lng": -71.409619}, {"name": "Gardner District Court", "phone": "(978) 632-2373", "fax": "(978) 630-3902", "address": "108 Matthews St., Gardner, MA 01440", "description": "This court serves Gardner, Hubbardston, Petersham, and Westminster.", "lat": 42.589381, "lng": -71.981943}, {"name": "Gloucester District Court", "phone": "(978) 283-2620", "fax": "(978) 283-8784", "address": "197 Main St., Gloucester, MA 01930", "description": "This court serves Essex, Gloucester, and Rockport.", "lat": 42.612796, "lng": -70.660932}, {"name": "Greenfield District Court", "phone": "(413) 774-5533", "fax": "(413) 774-5328", "address": "43 Hope St., Greenfield, MA 01301", "description": "This court serves Ashfield, Bernardston, Buckland, Charlemont, Colrain, Conway, Deerfield, Gill, Greenfield, Hawley, Heath, Leyden, Monroe, Montague, Northfield, Rowe, Shelburne, Sunderland, and Whately.", "lat": 42.586242, "lng": -72.59881}, {"name": "Haverhill District Court, Civil Department", "phone": "(978) 373-4151", "fax": "", "address": "Haverhill City Hall, 4 Summer St., Room 214, Haverhill, MA 01830", "description": "The Haverhill District Court Civil Department is operating out of Haverhill City Hall and serves Boxford, Bradford, Georgetown, Groveland and Haverhill.", "lat": 42.778114, "lng": -71.07683}, {"name": "Haverhill District Court, Criminal Department", "phone": "(978) 373-4151", "fax": "", "address": "188 State St., Newburyport, MA 01950", "description": "The Haverhill District Court Criminal Department in Newburyport serves Boxford, Bradford, Georgetown, Groveland and Haverhill.", "lat": 42.800114, "lng": -70.875346}, {"name": "Hingham District Court", "phone": "(781) 749-7000", "fax": "(781) 740-8390", "address": "28 George Washington Blvd., Hingham, MA 02043", "description": "This court serves Hanover, Hingham, Hull, Norwell, Rockland, and Scituate.", "lat": 42.255677, "lng": -70.8642}, {"name": "Holyoke District Court", "phone": "(413) 538-9710", "fax": "(413) 533-7165", "address": "20 Court Plaza, Holyoke, MA 01040", "description": "This court serves Holyoke.", "lat": 42.205833, "lng": -72.607494}, {"name": "Ipswich District Court", "phone": "(978) 462-2652", "fax": "(978) 462-5641", "address": "188 State St., Newburyport, MA 01950", "description": "The Ipswich District Court sits in Newburyport and serves Ipswich, Hamilton, Wenham, and Topsfield.", "lat": 42.800114, "lng": -70.875346}, {"name": "Lawrence District Court", "phone": "(978) 687-7184", "fax": "", "address": "Fenton Judicial Center, 2 Appleton St., Lawrence, MA 01840", "description": "This court serves Andover, Lawrence, Methuen, and North Andover.", "lat": 42.706667, "lng": -71.160436}, {"name": "Leominster District Court", "phone": "(978) 537-3722", "fax": "(978) 537-3970", "address": "25 School St., Leominster, MA 01453", "description": "This court serves Holden, Princeton, and Leominster.", "lat": 42.527921, "lng": -71.761283}, {"name": "Lowell District Court", "phone": "(978) 459-4101", "fax": "(978) 937-2486", "address": "41 Hurd St., Lowell, MA 01852", "description": "This court serves Billerica, Chelmsford, Dracut, Lowell, Tewksbury, and Tyngsboro.", "lat": 42.642691, "lng": -71.307535}, {"name": "Lynn District Court", "phone": "(781) 598-5200", "fax": "(781) 598-4350", "address": "580 Essex St., Lynn, MA 01901", "description": "This court serves Lynn, Marblehead, Nahant, Saugus, and Swampscott.", "lat": 42.465239, "lng": -70.949849}, {"name": "Malden District Court", "phone": "(781) 322-7500", "fax": "(781) 322-0169", "address": "89 Summer St., Malden, MA 02148", "description": "This court serves Malden, Melrose, Everett, and Wakefield.", "lat": 42.429973, "lng": -71.073865}, {"name": "Marlborough District Court", "phone": "(508) 485-3700", "fax": "(508) 485-1575", "address": "45 Williams St., Marlborough, MA 01752", "description": "This court serves Marlborough and Hudson.", "lat": 42.338688, "lng": -71.563861}, {"name": "Milford District Court", "phone": "(508) 473-1260", "fax": "(508) 634-8477", "address": "161 West St., Milford, MA 01757", "description": "This court serves Mendon, Upton, Hopedale, Milford, and Bellingham.", "lat": 42.140685, "lng": -71.538166}, {"name": "Nantucket District Court", "phone": "(508) 228-0460", "fax": "(508) 325-5759", "address": "16 Broad St., Nantucket, MA 02554", "description": "This court serves Nantucket County.", "lat": 41.285066, "lng": -70.099046}, {"name": "New Bedford District Court", "phone": "(508) 999-9700", "fax": "(508) 990-8094 ", "address": "75 N. Sixth St., New Bedford, MA 02740", "description": "This court serves Acushnet, Dartmouth, Fairhaven, Freetown, New Bedford, and Westport.", "lat": 41.637226, "lng": -70.928678}, {"name": "Newburyport District Court", "phone": "(978) 462-2652", "fax": "(978) 465-6471", "address": "188 State St., Newburyport, MA 01950", "description": "This court serves Amesbury, Merrimac, Newbury, Newburyport, Rowley, Salisbury, and West Newbury.\r\n\r\n", "lat": 42.800114, "lng": -70.875346}, {"name": "Newton District Court", "phone": "(617) 244-3600", "fax": "(617) 243-7291", "address": "1309 Washington St., West Newton, MA 02465", "description": "This court serves Newton.", "lat": 42.3493, "lng": -71.227032}, {"name": "Northampton District Court", "phone": "(413) 584-7400", "fax": "(413) 586-1980", "address": "15 Gothic St., Northampton, MA 01060", "description": "This court serves Chesterfield, Cummington, Easthampton, Goshen, Hatfield, Huntington, Middlefield, Northampton, Plainfield, Southampton, Westhampton, Williamsburg, and Worthington.", "lat": 42.319802, "lng": -72.63122}, {"name": "Northern Berkshire District Court", "phone": "(413) 663-5339", "fax": "(413) 664-7209", "address": "111 Holden St., North Adams, MA 01247", "description": "The Northern Berkshire District Court in North Adams serves Adams, Cheshire, Clarksburg, Florida, Hancock, New Ashford, North Adams, Savoy, Williamstown, and Windsor. Note: Pittsfield Division Exercising Concurrent Jurisdiction in Windsor and Hancock", "lat": 42.702671, "lng": -73.111663}, {"name": "Orange District Court", "phone": "(978) 544-8277", "fax": "(978) 544-5204", "address": "1 Court Square, Orange, MA 01364", "description": "This court serves Athol, Erving, Leverett, New Salem, Orange, Shutesbury, Warwick, and Wendell.", "lat": 42.595961, "lng": -72.332109}, {"name": "Orleans District Court", "phone": "(508) 255-4700", "fax": "(508) 240-1150", "address": "237 Rock Harbor Road, Orleans, MA 02653", "description": "This court serves Brewster, Chatham, Dennis, Eastham, Orleans, Harwich, Truro, Wellfleet, and Provincetown.", "lat": 41.798984, "lng": -69.988434}, {"name": "Palmer District Court", "phone": "(413) 283-8916", "fax": "(413) 283-6775", "address": "235 Sykes St., Suite 3, Palmer, MA 01069", "description": "This court serves Brimfield, East Longmeadow, Hampden, Holland, Ludlow, Monson, Palmer, Wales, and Wilbraham.", "lat": 42.187918, "lng": -72.347416}, {"name": "Peabody District Court", "phone": "(978) 532-3100", "fax": "(978) 531-8524", "address": "1 Lowell St., Peabody, MA 01960", "description": "This court serves Lynnfield and Peabody.", "lat": 42.526578, "lng": -70.927627}, {"name": "Pittsfield District Court", "phone": "(413) 499-0558", "fax": "(413) 499-7327", "address": "24 Wendell Ave., P.O. Box 875, Pittsfield, MA 01202", "description": "This court serves Becket, Dalton, Hancock, Hinsdale, Lanesborough, Lenox, Peru, Pittsfield, Richmond, Washington, and Windsor.", "lat": 42.447258, "lng": -73.25267}, {"name": "Plymouth District Court", "phone": "(508) 747-8400", "fax": "(508) 830-9303", "address": "52 Obery St., Plymouth, MA 02360", "description": "This court serves Duxbury, Halifax, Hanson, Kingston, Marshfield, Pembroke, Plymouth, and Plympton.", "lat": 41.939928, "lng": -70.649762}, {"name": "Quincy District Court", "phone": "(617) 471-1650", "fax": "(617) 472-1924", "address": "1 Dennis Ryan Parkway, Quincy, MA 02169", "description": "This court serves Braintree, Cohasset, Holbrook, Milton, Quincy, Randolph, and Weymouth.", "lat": 42.249601, "lng": -70.999763}, {"name": "Salem District Court", "phone": "(978) 744-1167", "fax": "", "address": "56 Federal St., Salem, MA 01970", "description": "This court serves Beverly, Danvers, Manchester by the Sea, Middleton, and Salem.", "lat": 42.523382, "lng": -70.896639}, {"name": "Somerville District Court", "phone": "(617) 666-8000", "fax": "(617) 776-2111", "address": "175 Fellsway, Somerville, MA 02145", "description": "This court serves Medford and Somerville. ", "lat": 42.395463, "lng": -71.08442}, {"name": "Southern Berkshire District Court", "phone": "(413) 528-3520", "fax": "(413) 528-0757", "address": "9 Gilmore Ave., Great Barrington, MA 01230", "description": "The Southern Berkshire District Court in Great Barrington serves Alford, Becket, Egremont, Great Barrington, Lee, Lenox, Monterey, Mt. Washington, New Marlborough, Otis, Sandisfield, Sheffield, Stockbridge, Tyringham, and West Stockbridge. Pittsfield District Court exercises concurrent jurisdiction in Becket and Lenox.", "lat": 42.200481, "lng": -73.353653}, {"name": "Springfield District Court", "phone": "(413) 748-8600", "fax": "", "address": "50 State St., P.O. Box 2421, Springfield, MA 01102", "description": "This court serves Longmeadow, Springfield, and West Springfield.", "lat": 42.09974, "lng": -72.589233}, {"name": "Stoughton District Court", "phone": "(781) 344-2131", "fax": "(781) 341-8744", "address": "1288 Central St., Stoughton, MA 02072", "description": "This court serves Avon, Canton, Sharon and Stoughton.", "lat": 42.13315, "lng": -71.111394}, {"name": "Taunton District Court", "phone": "(508) 977-6000", "fax": "(508) 824-2282", "address": "40 Broadway, Taunton, MA 02780", "description": "This court serves Berkley, Dighton, Easton, Raynham, Rehoboth, Seekonk, and Taunton.", "lat": 41.903226, "lng": -71.094154}, {"name": "Uxbridge District Court", "phone": "(508) 278-2454", "fax": "(508) 278-2929", "address": "261 South Main Street, Uxbridge, MA 01569", "description": "This court serves Blackstone, Douglas, Millville, Northbridge, Sutton and Uxbridge.", "lat": 42.063291, "lng": -71.623049}, {"name": "Waltham District Court", "phone": "(781) 894-4500", "fax": "", "address": "38 Linden Street, Waltham, MA 02452", "description": "This court serves Waltham, Watertown and Weston. ", "lat": 42.378726, "lng": -71.22451}, {"name": "Wareham District Court", "phone": "(508) 295-8300", "fax": "(508) 291-6376", "address": "2200 Cranberry Highway, Wareham, MA 02576", "description": "This court serves Carver, Lakeville, Marion, Mattapoisett, Middleboro, Rochester and Wareham.", "lat": 41.801576, "lng": -70.771997}, {"name": "Westborough District Court", "phone": "(508) 366-8266", "fax": "(508) 366-8268", "address": "186 Oak Street, Westbrough, MA 01581", "description": "This court serves Grafton, Northborough, Shrewsbury, Southborough and Westborough.", "lat": 42.286285, "lng": -71.631103}, {"name": "Westfield District Court", "phone": "(413) 568-8946", "fax": "(413) 568-4863", "address": "224 Elm Street, Westfield, MA 01085", "description": "This court serves Agawam, Blandford, Chester, Granville, Montgomery, Russell, Southwick, Tolland and Westfield.", "lat": 42.125281, "lng": -72.748275}, {"name": "Winchendon District Court", "phone": "(978) 632-6326", "fax": "(978) 632-3580", "address": "108 Matthews Street, Gardner District Court, Gardner, MA 01440", "description": "The Winchendon District Court sits in Gardner and serves Ashburnham, Phillipston, Royalston, Templeton and Winchendon.", "lat": 42.589381, "lng": -71.981943}, {"name": "Woburn District Court", "phone": "(781) 935-4000", "fax": "(781) 933-4404", "address": "30 Pleasant Street, Woburn, MA 01801", "description": "This court serves  Burlington, North Reading, Reading, Stoneham, Wilmington, Winchester, and Woburn.", "lat": 42.478934, "lng": -71.153276}, {"name": "Worcester District Court", "phone": "(508) 831-2010", "fax": "", "address": "225 Main St., Worcester, MA 01608", "description": "The Worcester District Court serves Auburn, Millbury, and Worcester. ", "lat": 42.26744, "lng": -71.799856}, {"name": "Wrentham District Court", "phone": "(508) 384-3106", "fax": "", "address": "60 East St., Wrentham, MA 02093", "description": "This court serves Foxborough, Franklin, Medway, Millis, Norfolk, Plainville, Walpole, and Wrentham.", "lat": 42.065131, "lng": -71.325283}]